City,Country,Lat,Lng,Max Temp,Humidity,Wind Speed,Cloudiness,Date
Bredasdorp,ZA,-34.53,20.04,44.6,87,1.12,99,1597645565
Cape Town,ZA,-33.93,18.42,48.99,81,9.17,20,1597645323
Camacha,PT,33.08,-16.33,71.6,83,6.93,20,1597645566
Atuona,PF,-9.8,-139.03,77.97,77,16.51,2,1597645566
Tupik,RU,54.43,119.93,60.48,52,12.08,100,1597645566
Hermanus,ZA,-34.42,19.23,44.01,91,7.45,100,1597645566
Hilo,US,19.73,-155.09,80.6,69,4.7,90,1597645567
Narsaq,GL,60.92,-46.05,44.6,70,4.7,0,1597645567
Jamestown,US,42.1,-79.24,64.0,100,3.36,90,1597645567
Bandarbeyla,SO,9.49,50.81,83.19,56,26.91,64,1597645567
Tutóia,BR,-2.76,-42.27,78.31,74,16.11,96,1597645568
Rikitea,PF,-23.12,-134.97,70.59,77,12.35,2,1597645568
Port Elizabeth,ZA,-33.92,25.57,42.8,81,4.7,88,1597645569
Storslett,NO,69.77,21.02,48.2,76,27.51,40,1597645569
Arzachena,IT,41.08,9.39,75.2,73,11.41,1,1597645570
Salalah,OM,17.02,54.09,77.0,100,4.7,90,1597645570
Husavik,IS,66.04,-17.34,48.2,93,3.36,15,1597645570
Barrow,US,71.29,-156.79,41.0,86,17.22,90,1597645570
Punta Arenas,CL,-53.15,-70.92,33.8,83,19.46,90,1597645571
Sozimskiy,RU,59.74,52.25,61.7,66,1.39,0,1597645571
Dubuque,US,42.48,-90.87,64.4,93,4.03,75,1597645571
Ngawi,ID,-7.4,111.45,94.23,37,6.93,3,1597645572
Kamaishi,JP,39.27,141.88,77.0,94,3.36,75,1597645572
Chokurdakh,RU,70.63,147.92,42.49,83,11.07,100,1597645572
Safford,US,32.83,-109.71,84.2,28,6.93,1,1597645572
Grand Gaube,MU,-20.01,57.66,75.0,67,11.01,1,1597645572
Cervo,ES,43.67,-7.41,64.0,91,9.1,100,1597645573
Pacific Grove,US,36.62,-121.92,73.4,64,4.7,1,1597645573
Vaini,TO,-21.2,-175.2,69.8,73,8.05,75,1597645573
Mataura,NZ,-46.19,168.86,44.01,86,1.01,38,1597645294
Diamantino,BR,-14.41,-56.45,75.33,37,3.36,37,1597645573
Comodoro Rivadavia,AR,-45.87,-67.5,44.6,52,19.46,10,1597645574
Paceco,IT,37.98,12.56,75.2,88,2.24,20,1597645574
Longhua,CN,23.61,114.19,92.73,50,5.39,12,1597645574
Noshiro,JP,40.2,140.02,75.2,94,4.7,75,1597645574
Necochea,AR,-38.55,-58.74,32.0,4,8.01,3,1597645575
Ushuaia,AR,-54.8,-68.3,32.0,93,6.93,75,1597645290
Marquette,US,46.53,-87.63,61.0,81,6.62,2,1597645575
Keila,EE,59.3,24.41,62.6,63,6.93,0,1597645575
Saskylakh,RU,71.92,114.08,68.72,31,4.41,57,1597645576
Udayagiri,IN,20.13,84.38,75.56,89,4.38,98,1597645576
Longyearbyen,SJ,78.22,15.64,44.6,75,3.36,75,1597645576
Avarua,CK,-21.21,-159.78,69.8,68,2.24,79,1597645576
Mar del Plata,AR,-38.0,-57.56,43.0,74,3.36,17,1597645576
Bethel,US,41.37,-73.41,61.0,93,4.47,1,1597645577
Busselton,AU,-33.65,115.33,53.01,88,7.0,82,1597645577
Galle,LK,6.04,80.22,83.32,75,11.01,57,1597645578
Gravdal,NO,68.12,13.5,50.0,71,13.87,40,1597645578
Havøysund,NO,71.0,24.66,48.2,70,18.34,40,1597645578
Pisco,PE,-13.7,-76.22,55.4,82,2.24,40,1597645578
Krasnyy Chikoy,RU,50.36,108.75,65.23,56,2.26,100,1597645580
Puerto Ayora,EC,-0.74,-90.35,63.0,91,7.87,33,1597645298
Mandalgovi,MN,45.76,106.27,71.49,37,15.43,0,1597645580
Hobart,AU,-42.88,147.33,57.0,81,9.17,75,1597645580
Kearney,US,40.7,-99.08,68.0,82,10.25,1,1597645410
Arlit,NE,18.74,7.39,87.91,34,9.37,14,1597645581
Tuktoyaktuk,CA,69.45,-133.04,51.8,93,4.7,90,1597645581
Mildura,AU,-34.2,142.15,64.4,42,17.22,34,1597645581
Atasū,KZ,48.68,71.64,75.4,28,9.06,15,1597645581
Saint Paul Harbor,US,57.79,-152.41,57.2,82,4.7,1,1597645581
Resistencia,AR,-27.46,-58.98,50.0,93,4.7,0,1597645583
Broome,US,42.25,-75.83,61.0,87,5.82,90,1597645583
Beringovskiy,RU,63.05,179.32,51.82,90,12.39,100,1597645583
Pangody,RU,65.85,74.49,54.28,86,4.32,99,1597645583
Constitución,CL,-35.33,-72.42,45.5,78,5.53,0,1597645584
Herat Province,AF,34.5,62.0,87.8,27,3.36,0,1597645584
Ngama,TD,11.78,17.17,74.14,91,7.96,86,1597645584
Nador,MA,35.17,-2.93,77.0,38,3.36,2,1597645584
Lebu,CL,-37.62,-73.65,46.6,85,8.81,64,1597645585
Inírida,CO,3.87,-67.92,73.76,97,3.31,84,1597645585
Norman Wells,CA,65.28,-126.83,51.8,87,3.36,75,1597645326
Cherskiy,RU,68.75,161.3,46.99,64,14.29,89,1597645586
Bluff,NZ,-46.6,168.33,44.01,86,1.01,45,1597645586
Namatanai,PG,-3.67,152.43,82.35,77,9.19,60,1597645586
Acaraú,BR,-2.89,-40.12,75.61,81,15.55,37,1597645586
Pangnirtung,CA,66.15,-65.71,51.06,77,4.61,87,1597645325
Sheridan,US,44.83,-106.92,64.0,48,5.82,1,1597645587
Beyneu,KZ,45.32,55.2,74.41,36,15.41,67,1597645587
São Félix do Xingu,BR,-6.64,-51.99,72.59,45,0.18,31,1597645588
Muhafazat Lahij,YE,13.17,44.58,90.55,41,4.85,78,1597645588
Lyuban',BY,52.8,28.0,67.84,76,4.81,0,1597645588
Karratha,AU,-20.74,116.85,80.85,22,10.45,0,1597645589
Saint-Joseph,RE,-21.37,55.62,77.0,50,4.7,35,1597645589
Mocuba,MZ,-16.84,36.99,74.03,70,4.27,0,1597645589
Bambous Virieux,MU,-20.34,57.76,77.0,61,18.34,20,1597645369
Kahului,US,20.89,-156.47,80.6,65,11.41,40,1597645590
Albany,US,42.6,-73.97,61.0,77,2.33,4,1597645590
Alofi,NU,-19.06,-169.92,71.6,68,14.99,75,1597645590
Sungai Penuh,ID,-2.08,101.38,74.98,81,2.73,40,1597645590
Airai,TL,-8.93,125.41,75.61,46,4.45,2,1597645591
Dikson,RU,73.51,80.55,47.23,97,0.27,99,1597645319
Ponta do Sol,PT,32.67,-17.1,73.4,73,9.17,20,1597645591
Seoul,KR,37.57,126.98,91.4,55,8.52,40,1597645339
Cockburn Town,TC,21.46,-71.14,82.49,83,13.85,70,1597645591
Souillac,MU,-20.52,57.52,77.0,61,18.34,20,1597645342
Jiazi,CN,22.88,116.07,87.35,64,9.57,30,1597645592
Khatanga,RU,71.97,102.5,71.64,53,3.47,30,1597645592
Yellowknife,CA,62.46,-114.35,53.6,76,4.7,75,1597645310
Chipiona,ES,36.74,-6.44,68.0,77,9.17,0,1597645593
Manali,IN,13.17,80.27,91.4,52,13.87,75,1597645593
Puro,PH,12.48,123.38,84.92,73,7.54,90,1597645593
Vao,NC,-22.67,167.48,70.92,87,15.46,85,1597645593
São Gabriel da Cachoeira,BR,-0.13,-67.09,73.99,93,0.83,80,1597645593
Verāval,IN,20.9,70.37,83.26,81,19.66,98,1597645594
Biltine,TD,14.53,20.92,80.65,69,6.98,96,1597645594
Chico,US,39.73,-121.84,82.99,45,5.61,1,1597645229
Çan,TR,40.03,27.05,75.2,57,20.8,20,1597645350
Kapit,MY,2.02,112.93,95.92,40,2.21,16,1597645595
Carnarvon,AU,-24.87,113.63,66.2,59,9.17,67,1597645595
Deputatsky,RU,69.3,139.9,40.89,79,5.77,100,1597645596
Ngunguru,NZ,-35.62,174.5,55.99,3,10.0,98,1597645596
Kwinana,AU,-32.25,115.77,64.0,72,17.22,75,1597645596
Krasnosel'kup,RU,65.7,82.47,66.63,73,7.27,87,1597645596
Ayagoz,KZ,47.97,80.44,83.91,17,3.65,5,1597645597
Verkhnevilyuysk,RU,63.45,120.32,65.98,37,5.86,17,1597645597
Faanui,PF,-16.48,-151.75,78.08,73,10.92,39,1597645597
Port Alfred,ZA,-33.59,26.89,51.3,61,7.67,80,1597645597
Srednekolymsk,RU,67.45,153.68,49.6,58,12.01,94,1597645597
Ampanihy,MG,-24.7,44.75,71.02,66,6.35,0,1597645598
Khunti,IN,23.08,85.28,80.6,88,5.82,40,1597645598
Castro,BR,-24.79,-50.01,59.61,96,4.52,100,1597645388
Kapaa,US,22.08,-159.32,80.6,69,10.29,75,1597645598
Lorengau,PG,-2.02,147.27,84.54,72,11.5,4,1597645598
Tuatapere,NZ,-46.13,167.68,44.01,86,1.01,55,1597645599
Mahébourg,MU,-20.41,57.7,77.0,61,18.34,20,1597645317
Makkah al Mukarramah,SA,21.43,39.83,96.78,21,6.49,63,1597645599
Butaritari,KI,3.07,172.79,81.81,61,0.11,14,1597645599
São Filipe,CV,14.9,-24.5,79.54,81,7.38,60,1597645599
Clyde River,CA,70.47,-68.59,41.0,100,17.22,90,1597645600
High Level,CA,58.52,-117.14,57.2,93,2.24,75,1597645600
Petropavlovsk-Kamchatskiy,RU,53.05,158.65,66.2,72,11.18,40,1597645600
Cabo San Lucas,MX,22.89,-109.91,86.0,62,1.99,19,1597645601
Tabuk,PH,17.42,121.44,79.68,85,3.13,100,1597645601
Laguna,US,38.42,-121.42,87.01,51,4.7,1,1597645601
Upernavik,GL,72.79,-56.15,40.8,66,6.02,48,1597645602
Ubari,LY,26.59,12.78,82.44,21,7.0,0,1597645602
Mossamedes,AO,-15.2,12.15,60.89,90,1.88,22,1597645602
Pangai,TO,-19.8,-174.35,73.4,69,16.11,75,1597645602
East London,ZA,-33.02,27.91,50.0,51,8.05,31,1597645568
Beïnamar,TD,8.67,15.38,70.72,96,4.92,99,1597645603
Aklavik,CA,68.22,-135.01,51.8,87,3.36,90,1597645603
Vīsāvadar,IN,21.38,70.68,83.55,79,14.34,93,1597645603
Severo-Kuril'sk,RU,50.68,156.12,52.79,88,3.69,84,1597645604
Kendari,ID,-3.94,122.5,83.73,59,5.99,87,1597645604
Mana,GF,5.66,-53.78,77.9,84,8.52,100,1597645604
Oranjemund,NA,-28.55,16.43,52.47,77,13.78,0,1597645604
Hasaki,JP,35.73,140.83,97.0,66,11.41,75,1597645604
Port Moresby,PG,-9.44,147.18,84.2,62,23.04,5,1597645404
Barra do Corda,BR,-5.5,-45.25,71.64,56,4.5,1,1597645605
San Patricio,MX,19.22,-104.7,79.34,83,4.81,6,1597645306
Hargeisa,SO,9.56,44.06,74.98,53,28.74,13,1597645605
Kirakira,SB,-10.45,161.92,83.23,66,1.36,6,1597645606
Royan,FR,45.63,-1.03,64.4,100,8.05,71,1597645606
Boralday,KZ,43.36,76.86,86.0,28,6.71,40,1597645606
Kaitangata,NZ,-46.28,169.85,48.0,75,11.01,50,1597645318
Calabozo,VE,8.92,-67.43,75.07,96,4.79,100,1597645607
Cidreira,BR,-30.18,-50.21,53.91,80,3.24,37,1597645607
Mount Isa,AU,-20.73,139.5,87.8,12,8.05,0,1597645607
Kutum,SD,14.2,24.67,73.08,66,0.83,88,1597645607
College,US,64.86,-147.8,62.6,51,4.7,20,1597645608
Filingué,NE,14.35,3.32,81.91,69,14.79,97,1597645608
Yangi Marg`ilon,UZ,40.43,71.72,86.0,27,2.24,69,1597645608
Christchurch,NZ,-43.53,172.63,48.0,81,9.17,20,1597645522
Nikolskoye,RU,59.7,30.79,64.0,55,8.95,0,1597645609
Amapá,BR,1.0,-52.0,71.2,98,2.35,18,1597645609
Luanda,AO,-8.84,13.23,69.8,88,6.93,75,1597645609
Klaksvík,FO,62.23,-6.59,46.4,100,9.24,100,1597645609
Wernigerode,DE,51.83,10.78,70.0,82,3.53,76,1597645610
Torbay,CA,47.67,-52.73,57.99,76,16.11,5,1597645320
Oskaloosa,US,41.3,-92.64,69.8,77,5.82,40,1597645526
Zavyalovo,RU,54.51,82.45,75.2,57,6.71,40,1597645610
Souris,CA,49.62,-100.26,53.6,93,3.36,5,1597645611
Sartell,US,45.62,-94.21,66.0,88,5.82,75,1597645611
Hithadhoo,MV,-0.6,73.08,84.18,68,5.14,91,1597645611
Saint-Philippe,RE,-21.36,55.77,77.0,50,4.7,23,1597645611
Okha,RU,53.57,142.95,58.95,77,6.6,95,1597645612
Padang,ID,-0.95,100.35,83.5,70,7.29,14,1597645612
Saint-Augustin,CA,51.23,-58.65,60.12,61,5.01,0,1597645329
Amasya,TR,40.65,35.83,69.8,49,13.87,20,1597645612
Soverato Marina,IT,38.69,16.55,78.8,68,4.7,38,1597645612
Caravelas,BR,-17.71,-39.25,72.52,91,8.01,42,1597645342
Artyom,AZ,40.47,50.33,71.6,78,6.93,40,1597645613
Pevek,RU,69.7,170.31,36.57,99,11.59,100,1597645613
Brandfort,ZA,-28.7,26.46,32.0,64,13.71,0,1597645613
Dārāb,IR,28.75,54.54,96.91,18,4.56,2,1597645613
Umluj,SA,25.02,37.27,90.99,42,4.18,2,1597645614
Loukhi,RU,66.08,33.04,51.31,60,12.66,96,1597645614
Taoudenni,ML,22.68,-3.98,95.13,10,4.79,0,1597645614
Distrikt Brokopondo,SR,4.75,-55.17,77.56,80,4.92,84,1597645614
Kawambwa,ZM,-9.79,29.08,66.97,34,3.76,54,1597645614
Port Hedland,AU,-20.32,118.57,82.4,45,14.99,0,1597645615
Buala,SB,-8.14,159.59,82.69,73,0.6,66,1597645615
Babushkin,RU,51.71,105.86,61.2,55,5.68,0,1597645615
Arraial do Cabo,BR,-22.97,-42.03,71.02,91,10.09,75,1597645615
Kabinda,CD,-6.13,24.48,77.49,35,1.05,90,1597645616
Owando,CG,-0.48,15.9,73.87,86,5.14,100,1597645616
Lüderitz,NA,-26.65,15.16,53.06,71,18.84,0,1597645358
Pochutla,MX,15.74,-96.47,80.01,84,3.36,100,1597645616
Dalbandin,PK,28.89,64.41,100.56,19,3.67,0,1597645618
Ribeira Grande,PT,38.52,-28.7,73.4,94,24.16,75,1597645618
Talnakh,RU,69.49,88.4,73.4,38,15.66,47,1597645618
Salinópolis,BR,-0.61,-47.36,78.4,84,11.18,10,1597645618
Luang Prabang,LA,19.89,102.13,76.55,86,1.12,100,1597645489
Tena,EC,-0.98,-77.82,66.58,82,4.41,98,1597645619
Carahue,CL,-38.7,-73.17,41.0,100,1.59,90,1597645619
Bariloche,AR,-41.15,-71.31,39.2,64,20.8,40,1597645619
Naberera,TZ,-4.2,36.93,62.4,78,10.25,100,1597645619
Odesa,UA,46.48,30.73,75.2,44,6.02,0,1597645485
Concordia,AR,-31.39,-58.02,46.69,65,4.14,0,1597645620
Stephenville,US,32.22,-98.2,72.0,83,5.82,40,1597645430
Salem,IN,11.65,78.17,87.8,58,5.82,40,1597645520
Marawi,PH,8.0,124.29,84.99,72,5.99,87,1597645377
Nanortalik,GL,60.14,-45.24,42.62,77,4.68,0,1597645621
Conil,FR,44.97,3.72,49.91,88,3.6,65,1597645621
Kemisē,ET,10.72,39.87,75.81,57,2.46,100,1597645621
Jacareacanga,BR,-6.22,-57.75,73.2,46,0.51,51,1597645621
Saint-Leu,RE,-21.15,55.28,77.0,50,4.7,54,1597645621
Berbera,SO,10.44,45.01,93.02,41,18.84,78,1597645622
Sar-e Pul,AF,35.83,66.17,82.94,20,8.97,0,1597645622
Wiang Sa,TH,8.64,99.37,96.8,59,10.29,20,1597645622
Olafsvik,IS,64.89,-23.71,54.3,88,4.25,97,1597645623
Geraldton,AU,-28.77,114.6,64.4,63,17.22,90,1597645623
New Norfolk,AU,-42.78,147.06,57.0,85,1.23,79,1597645623
Butembo,CD,0.15,29.28,66.24,88,1.03,82,1597645623
Santo Antônio do Sudoeste,BR,-26.07,-53.73,55.24,90,2.77,10,1597645624
Mago,RU,53.25,140.18,56.75,86,3.0,100,1597645624
Kavaratti,IN,10.57,72.64,84.2,74,6.93,20,1597645624
Khani,GE,41.96,42.96,75.2,69,5.82,54,1597645625
Severnyy-Kospashskiy,RU,59.09,57.8,51.01,99,1.01,100,1597645625
Vila,PT,42.03,-8.16,66.99,100,9.17,90,1597645625
Itoman,JP,26.12,127.67,91.0,66,11.41,40,1597645625
Luganville,VU,-15.53,167.17,78.8,88,1.12,75,1597645626
Togur,RU,58.36,82.83,69.37,58,6.71,88,1597645626
São José da Coroa Grande,BR,-8.9,-35.15,73.78,85,10.29,40,1597645627
Libertador General San Martín,AR,-23.81,-64.79,53.01,74,2.8,0,1597645627
Nantucket,US,41.28,-70.1,62.6,93,29.97,90,1597645595
Isangel,VU,-19.55,169.27,77.0,83,12.46,40,1597645627
Birjand,IR,32.87,59.22,91.4,13,4.12,0,1597645628
Richards Bay,ZA,-28.78,32.04,60.94,63,2.26,80,1597645628
Aykhal,RU,66.0,111.5,68.0,32,8.95,67,1597645628
Vardø,NO,70.37,31.11,44.6,87,23.04,75,1597645380
Port Lincoln,AU,-34.73,135.87,60.46,62,18.77,27,1597645595
Port Hardy,CA,50.7,-127.42,59.0,93,3.36,20,1597645629
Port Blair,IN,11.67,92.75,85.89,71,14.54,76,1597645330
San Quintín,MX,30.48,-115.95,74.01,71,5.46,0,1597645629
Hirado,JP,33.36,129.55,93.2,59,3.36,20,1597645630
Alice Springs,AU,-23.7,133.88,89.6,15,19.46,0,1597645630
Kidodi,TZ,-7.6,37.0,76.62,67,2.86,93,1597645630
Samarai,PG,-10.62,150.67,77.2,72,12.1,16,1597645357
Tasiilaq,GL,65.61,-37.64,51.8,76,12.75,100,1597645631
Kongolo,CD,-5.38,27.0,82.29,31,0.34,71,1597645631
Rawson,AR,-43.3,-65.1,42.48,62,16.46,0,1597645631
Nehe,CN,48.48,124.83,70.14,87,10.56,100,1597645557
Batticaloa,LK,7.71,81.69,87.87,55,4.81,99,1597645632
Chui,UY,-33.7,-53.46,44.69,76,9.22,0,1597645632
Nyurba,RU,63.28,118.33,65.62,40,5.44,17,1597645632
Darłowo,PL,54.42,16.41,68.0,55,7.0,5,1597645632
Ostrovnoy,RU,68.05,39.51,45.52,84,17.34,80,1597645633
Lavrentiya,RU,65.58,-171.0,51.75,70,6.24,100,1597645633
Arman',RU,59.7,150.17,60.71,67,3.91,100,1597645633
Anadyr,RU,64.75,177.48,57.2,71,6.71,40,1597645634
Haines Junction,CA,60.75,-137.51,49.28,83,3.4,100,1597645634
George Town,MY,5.41,100.34,87.8,70,5.82,20,1597645582
Yulara,AU,-25.24,130.99,82.4,28,18.34,29,1597645634
Yeruham,IL,30.99,34.93,82.99,55,1.01,0,1597645635
La Tuque,CA,47.43,-72.78,57.42,95,4.9,40,1597645635
Provideniya,RU,64.38,-173.3,50.0,76,8.95,90,1597645635
Pinega,RU,64.7,43.39,55.31,52,4.32,6,1597645355
Qaqortoq,GL,60.72,-46.03,44.6,70,4.7,0,1597645635
Saldanha,ZA,-33.01,17.94,37.4,93,3.36,47,1597645636
Ullapool,GB,57.9,-5.16,57.99,84,5.01,33,1597645636
Hervey Bay,AU,-25.3,152.85,73.4,27,9.17,0,1597645636
Bereda,ES,43.27,-7.54,63.0,95,8.99,100,1597645637
Fortuna,US,40.6,-124.16,60.01,92,2.33,87,1597645637
Hamilton,US,39.18,-84.53,68.0,93,3.18,1,1597645342
Jalu,LY,29.03,21.55,80.56,54,10.42,7,1597645637
Tokur,RU,53.13,132.9,56.26,76,2.04,100,1597645637
Sobolevo,RU,54.43,31.9,66.72,78,8.68,0,1597645638
Paamiut,GL,61.99,-49.67,46.38,56,7.58,0,1597645638
High Rock,BS,26.62,-78.28,83.91,74,10.16,0,1597645638
Mahudha,IN,22.82,72.93,84.2,89,3.36,90,1597645638
Marsh Harbour,BS,26.54,-77.06,83.28,73,9.66,12,1597645639
Kyrenia,CY,35.34,33.32,91.4,17,9.17,0,1597645639
Ingham,US,42.6,-84.38,62.01,93,6.13,1,1597645639
Gwadar,PK,25.12,62.33,84.42,76,7.49,79,1597645639
Shingū,JP,33.73,135.98,91.4,63,9.17,40,1597645640
Borjomi,GE,41.85,43.41,68.56,54,3.96,47,1597645640
Coquimbo,CL,-29.95,-71.34,44.6,93,3.36,0,1597645640
Meulaboh,ID,4.14,96.13,85.91,59,5.61,10,1597645641
Saint-François,FR,46.42,3.91,62.01,100,2.24,90,1597645641
Katsuura,JP,35.13,140.3,97.0,56,17.22,75,1597645641
Vostok,RU,46.49,135.88,70.29,59,8.63,39,1597645641
Kalengwa,ZM,-13.47,25.0,62.42,31,3.71,46,1597645642
Kupang,ID,-10.17,123.58,89.6,46,16.11,20,1597645642
Serebryanyy Bor,RU,56.8,124.8,52.14,67,8.3,93,1597645642
Abidjan,CI,5.31,-4.02,75.2,88,3.36,75,1597645642
Saint Anthony,US,45.02,-93.22,72.0,88,3.36,90,1597645642
Honningsvåg,NO,70.98,25.97,48.2,70,18.34,40,1597645643
Hobyo,SO,5.35,48.53,80.56,66,21.39,40,1597645643
Kumul,CN,42.8,93.45,89.26,12,9.22,1,1597645643
Korla,CN,41.76,86.15,87.26,16,5.19,79,1597645643
Ekhabi,RU,53.51,142.97,59.47,76,6.51,94,1597645644
Leningradskiy,RU,69.38,178.42,44.28,91,3.13,100,1597645644
North Ogden,US,41.31,-111.96,82.4,15,7.49,1,1597645644
Moose Factory,CA,51.26,-80.61,59.0,87,5.82,90,1597645644
Miramar,US,25.99,-80.23,84.99,74,3.98,1,1597645373
Launceston,AU,-41.45,147.17,59.0,58,4.7,75,1597645645
Winslow,US,35.02,-110.7,80.6,26,12.75,1,1597645645
Pangkalanbuun,ID,-2.68,111.62,87.4,64,4.23,87,1597645645
Qaanaaq,GL,77.48,-69.36,34.09,80,9.46,41,1597645645
Kambove,CD,-10.88,26.6,63.95,33,5.21,66,1597645646
Baykit,RU,61.67,96.37,69.24,31,7.11,100,1597645646
Pitimbu,BR,-7.47,-34.81,71.6,100,4.7,20,1597645646
Portland,US,45.52,-122.68,77.0,64,4.7,20,1597645216
Zhigansk,RU,66.77,123.37,58.71,38,10.18,0,1597645647
Yatou,CN,37.15,122.38,83.39,83,11.36,68,1597645647
Kiruna,SE,67.86,20.23,48.2,57,12.75,64,1597645647
Saquarema,BR,-22.92,-42.51,69.17,94,2.95,100,1597645527
Denpasar,ID,-8.65,115.22,82.4,83,19.46,75,1597645648
Sur,OM,22.57,59.53,92.52,55,1.16,88,1597645648
Lata,PT,40.16,-8.33,68.0,92,2.64,72,1597645648
Anloga,GH,5.79,0.9,75.2,88,9.17,40,1597645648
Rypefjord,NO,70.63,23.67,46.4,81,31.09,75,1597645649
Touros,BR,-5.2,-35.46,69.8,100,4.7,40,1597645649
Dandong,CN,40.13,124.39,79.92,90,11.65,94,1597645649
Makat,KZ,47.65,53.35,70.79,40,16.91,0,1597645649
Maceió,BR,-9.67,-35.74,71.6,94,2.24,20,1597645615
Taitung City,TW,22.76,121.14,80.6,83,4.7,90,1597645650
Riyadh,SA,24.69,46.72,98.6,18,3.36,67,1597645628
Oruro,BO,-17.98,-67.15,34.65,65,5.32,23,1597645650
Flin Flon,CA,54.77,-101.86,52.11,74,4.32,69,1597645650
Saint George,US,37.1,-113.58,102.2,8,10.29,1,1597645651
Sitka,US,57.05,-135.33,55.4,87,2.46,75,1597645651
Morehead,US,37.27,-87.18,69.8,100,5.1,1,1597645651
Noumea,NC,-22.28,166.46,69.8,94,4.7,75,1597645651
Tulun,RU,54.56,100.58,67.95,43,8.19,1,1597645652
Esperance,AU,-33.87,121.9,55.4,62,31.09,90,1597645652
Adrar,MR,20.5,-10.07,93.58,28,13.18,0,1597645652
Syke,DE,52.9,8.83,66.99,88,2.24,20,1597645652
Teya,RU,60.38,92.63,68.11,36,8.14,100,1597645653
Yaring,TH,6.87,101.37,89.6,66,9.17,20,1597645653
Mount Gambier,AU,-37.83,140.77,51.8,87,10.29,90,1597645653
Burnie,AU,-41.07,145.92,64.0,48,5.01,2,1597645653
Susa,IR,32.19,48.24,102.49,10,5.08,0,1597645654
Laas,IT,46.62,10.7,55.4,100,2.24,75,1597645654
Tezu,IN,27.92,96.17,76.12,87,0.34,100,1597645654
Clyde,US,41.3,-82.98,66.99,93,5.26,0,1597645654
Tatarsk,RU,55.22,75.98,66.2,65,14.47,100,1597645654
Tumkūr,IN,13.34,77.1,80.01,74,16.11,40,1597645655
Praia da Vitória,PT,38.73,-27.07,75.2,83,25.12,40,1597645655
Hirara,JP,24.8,125.28,86.0,84,9.17,75,1597645655
Tiksi,RU,71.69,128.87,50.94,59,8.79,25,1597645445
Atar,MR,20.52,-13.05,92.59,21,8.57,19,1597645656
Arrondissement de Bourges,FR,47.25,2.42,63.0,82,5.82,75,1597645656
The Valley,AI,18.22,-63.06,84.2,74,10.29,20,1597645602
Thompson,CA,55.74,-97.86,46.4,93,4.7,5,1597645657
Margate,GB,51.38,1.39,64.0,97,1.99,17,1597645657
Vyazemskiy,RU,47.54,134.75,71.56,72,5.21,56,1597645657
Spring Valley,US,36.11,-115.25,100.4,9,5.82,75,1597645657
Bayangol,RU,50.7,103.47,68.31,42,2.44,41,1597645658
Los Llanos de Aridane,ES,28.66,-17.92,71.6,78,10.29,20,1597645658
Raudeberg,NO,61.99,5.14,66.0,87,7.85,82,1597645658
Hanting,CN,36.77,119.21,93.87,63,8.66,5,1597645659
Poso,ID,-1.4,120.75,91.99,50,3.47,25,1597645373
Novikovo,RU,51.15,37.89,68.49,73,9.44,0,1597645659
Opuwo,NA,-18.06,13.84,56.43,45,2.37,0,1597645659
Belyy Yar,RU,53.6,91.39,75.2,64,4.47,100,1597645660
Kiryat Gat,IL,31.61,34.76,82.99,55,1.01,0,1597645660
Stony Plain,CA,53.53,-114.0,66.0,87,3.36,40,1597645660
Bolobo,CD,-2.17,16.23,76.95,74,5.01,68,1597645660
Hay River,CA,60.82,-115.8,57.2,87,4.7,75,1597645661
Ginir,ET,7.13,40.7,65.01,73,6.98,28,1597645661
Lompoc,US,34.64,-120.46,64.4,88,3.36,1,1597645499
Ayan,RU,56.45,138.17,55.92,86,3.47,98,1597645661
Baoro,CF,5.67,15.97,69.69,92,1.32,100,1597645661
Mazagão,BR,-0.12,-51.29,80.6,100,4.7,40,1597645662
Xifeng,CN,42.74,124.72,82.62,74,7.99,94,1597645662
Imbituba,BR,-28.24,-48.67,59.0,100,3.36,75,1597645662
Makakilo City,US,21.35,-158.09,80.6,61,5.82,40,1597645663
Yakuplu,TR,40.99,28.68,77.0,50,17.22,20,1597645663
Kimberley,ZA,-28.73,24.76,39.2,44,10.98,0,1597645663
Norsup,VU,-16.07,167.38,78.8,88,1.12,75,1597645663
Kasungu,MW,-13.03,33.48,72.52,37,7.11,28,1597645664
Fort Nelson,CA,58.81,-122.7,59.0,87,5.82,20,1597645664
San Cristobal,VE,7.77,-72.22,64.96,87,1.14,85,1597645557
Wanxian,CN,30.8,108.39,97.83,41,4.14,34,1597645664
Borken,DE,51.85,6.87,71.01,96,1.01,83,1597645664
Palmer,US,42.16,-72.33,64.99,82,5.82,75,1597645665
Pereira Barreto,BR,-20.64,-51.11,68.9,71,13.0,82,1597645665
Kédougou,SN,12.56,-12.17,72.99,93,1.88,92,1597645665
Orotukan,RU,62.27,151.7,54.54,56,5.95,100,1597645666
Bengkulu,ID,-3.8,102.27,85.73,67,12.37,6,1597645533
Brae,GB,60.4,-1.35,55.4,93,13.87,75,1597645666
Hong Kong,HK,22.29,114.16,86.0,70,11.41,40,1597645666
Pemangkat,ID,1.17,108.97,84.45,71,10.09,19,1597645666
Øksfjord,NO,70.24,22.35,48.2,81,25.28,75,1597645667
Chauk,MM,20.88,94.82,81.97,77,19.57,99,1597645667
Portel,BR,-1.94,-50.82,74.79,93,4.97,25,1597645667
Bragança,BR,-1.05,-46.77,72.86,95,2.77,1,1597645667
Albury,AU,-36.08,146.92,57.2,58,12.75,50,1597645633
Khovd,MN,48.01,91.64,67.42,44,4.65,52,1597645668
Östersund,SE,63.18,14.64,48.2,70,4.7,0,1597645668
Dauphin,CA,51.15,-100.05,51.8,93,5.82,1,1597645668
Tura,IN,25.52,90.22,83.23,80,8.32,87,1597645669
Novy Urengoy,RU,66.08,76.63,57.97,80,7.92,96,1597645669
Liverpool,GB,53.41,-2.98,60.8,93,4.7,90,1597645669
Fairbanks,US,64.84,-147.72,62.6,62,4.7,1,1597645669
Cayenne,GF,4.93,-52.33,77.0,100,8.95,87,1597645670
Abhā,SA,18.22,42.51,78.8,38,3.36,35,1597645670
Nizwá,OM,22.93,57.53,99.21,28,5.21,85,1597645670
Robertson,US,36.52,-86.87,66.2,93,7.76,1,1597645670
Codrington,AU,-38.27,141.97,57.18,71,12.77,41,1597645671
Maningrida,AU,-12.07,134.27,85.44,40,11.97,21,1597645671
Bandi̇̄pur,NP,27.93,84.42,84.09,69,2.93,58,1597645671
Tual,ID,-5.67,132.75,79.43,78,11.21,4,1597645671
Caborca,MX,30.58,-111.1,91.99,40,5.01,89,1597645672
Half Moon Bay,US,37.46,-122.43,73.99,93,10.29,75,1597645404
Sørland,NO,67.67,12.69,53.6,62,9.17,75,1597645672
Tuxpan,MX,19.55,-103.4,63.52,84,2.77,100,1597645672
Kapra,IN,17.48,78.56,75.2,100,8.05,90,1597645673
Banda Aceh,ID,5.56,95.32,86.83,64,11.68,11,1597645673
Elizabeth City,US,36.29,-76.25,71.01,98,3.89,59,1597645673
Alekseyevsk,RU,57.84,108.35,69.6,29,10.22,0,1597645673
Carutapera,BR,-1.2,-46.02,75.65,85,6.17,33,1597645674
Juneau,US,58.3,-134.42,55.0,93,4.0,75,1597645666
Broken Hill,AU,-31.95,141.43,64.4,39,18.34,40,1597645674
Santa Maria,BR,-29.68,-53.81,44.6,71,3.94,14,1597645674
Câmara de Lobos,PT,32.63,-16.97,73.4,73,9.17,20,1597645675
Madison,US,34.73,-86.57,73.99,100,8.05,1,1597645675
Ilave,PE,-16.08,-69.67,36.32,73,6.06,19,1597645675
Calvinia,ZA,-31.47,19.78,43.02,58,3.87,88,1597645675
Yumen,CN,40.28,97.2,85.93,13,20.47,49,1597645676
Luorong,CN,24.41,109.61,90.27,57,3.53,49,1597645676
Windhoek,NA,-22.56,17.08,51.8,34,2.24,0,1597645676
Phuket,TH,8.0,98.25,89.01,70,9.17,20,1597645676
Bilma,NE,18.69,12.92,91.42,34,8.05,53,1597645677
Cody,US,44.53,-109.06,69.01,24,4.03,1,1597645667
Machinga,MW,-15.17,35.3,73.38,40,5.21,0,1597645677
Sehithwa,BW,-20.47,22.72,58.78,30,7.78,0,1597645677
Stromness,GB,58.97,-3.3,55.4,100,10.29,90,1597645677
Guilin,CN,25.28,110.29,89.6,59,4.47,40,1597645678
San Fernando del Valle de Catamarca,AR,-28.47,-65.79,53.01,58,1.01,0,1597645678
Province of Siena,IT,43.22,11.4,75.0,64,0.87,0,1597645678
Lac du Bonnet,CA,50.25,-96.06,54.0,99,2.21,95,1597645678
Lagoa,PT,39.05,-27.98,73.89,88,30.87,100,1597645679
Hailar,CN,49.2,119.7,66.63,87,2.1,100,1597645679
Hengyang,CN,26.89,112.61,99.27,38,2.68,1,1597645664
Zabid,YE,14.2,43.32,95.43,41,3.85,81,1597645680
Dayong,CN,25.02,118.29,95.0,56,2.24,40,1597645680
Springfield,US,37.22,-93.3,70.0,72,3.36,1,1597645672
Puerto Palomas,MX,31.77,-107.62,77.0,50,10.29,1,1597645680
Plettenberg Bay,ZA,-34.05,23.37,48.51,65,4.45,100,1597645681
Zarautz,ES,43.28,-2.17,62.01,79,1.01,85,1597645681
Puri,IN,19.8,85.85,89.6,79,13.87,75,1597645681
Beloha,MG,-25.17,45.05,72.45,65,5.08,0,1597645681
Lerdo,MX,25.53,-103.53,81.0,44,5.01,20,1597645682
Marystown,CA,47.17,-55.15,55.0,100,6.78,0,1597645682
Chunoyar,RU,57.45,97.32,70.29,36,9.57,100,1597645682
Santana do Mundaú,BR,-9.17,-36.22,71.6,94,2.24,20,1597645683
Dhārchula,IN,29.85,80.53,80.46,60,4.61,76,1597645683
Yerbogachën,RU,61.28,108.01,68.92,34,2.68,0,1597645683
Kharan,PK,28.58,65.42,97.72,34,7.7,0,1597645683
Coyhaique,CL,-45.58,-72.07,39.2,89,10.29,90,1597645683
Faaborg,DK,55.1,10.24,72.0,73,6.93,96,1597645684
Río Gallegos,AR,-51.62,-69.22,35.6,74,13.87,88,1597645684
Ilulissat,GL,69.22,-51.1,42.8,56,5.82,15,1597645684
Lucapa,AO,-8.42,20.74,70.03,27,1.61,61,1597645684
Kenai,US,60.55,-151.26,61.0,77,6.93,1,1597645622
Daud Khel,PK,32.88,71.57,102.97,33,5.46,42,1597645685
Sabha,LY,27.04,14.43,82.58,25,6.29,0,1597645685
Puerto Colombia,CO,10.99,-74.95,82.4,88,4.7,20,1597645685
Ascension,US,30.22,-90.9,75.0,88,5.57,65,1597645686
Acapulco de Juárez,MX,16.86,-99.89,79.27,84,10.29,100,1597645686
São Miguel do Iguaçu,BR,-25.35,-54.24,62.6,93,4.7,40,1597645686
Murici,BR,-9.31,-35.94,71.6,94,2.24,20,1597645686
Ambon City,ID,-3.7,128.18,84.2,74,9.17,40,1597645687
Bonavista,CA,48.65,-53.11,54.0,81,1.99,0,1597645687
Tres Arroyos,AR,-38.37,-60.28,36.05,82,8.43,0,1597645687
Rio de Janeiro,BR,-22.9,-43.21,68.0,88,3.36,40,1597645400
Priargunsk,RU,50.37,119.1,63.9,86,8.63,100,1597645688
Chokwé,MZ,-24.53,32.98,65.01,76,11.56,100,1597645688
Venice,US,27.1,-82.45,84.0,83,5.12,1,1597645544
Yārāda,IN,17.65,83.27,86.0,70,18.34,75,1597645688
Macia,MZ,-25.03,33.1,62.85,80,9.24,100,1597645689
Dvinskoy Bereznik,RU,62.86,42.71,53.53,67,6.04,0,1597645689
Nadym,RU,65.53,72.52,51.33,86,3.33,100,1597645689
Nong Ki,TH,14.69,102.54,90.0,70,6.93,75,1597645689
Ust'-Ishim,RU,57.69,71.17,54.99,95,9.78,85,1597645690
Tianpeng,CN,30.99,103.94,81.0,94,6.71,75,1597645690
Vanavara,RU,60.34,102.28,69.15,29,7.56,0,1597645690
Zuwārah,LY,32.93,12.08,86.72,42,3.85,0,1597645690
Faya,SA,18.39,42.45,78.8,38,3.36,30,1597645691
Novaya Igirma,RU,57.13,103.91,69.58,29,7.47,1,1597645691
Erdenet,MN,49.03,104.08,54.64,74,2.66,98,1597645691
Basoko,CD,1.24,23.62,71.55,95,7.72,100,1597645691
Pizarro,CO,4.95,-77.37,77.14,87,4.0,100,1597645691
Gouré,NE,13.98,10.27,80.01,76,1.01,99,1597645692
Novovasylivka,UA,46.83,35.75,73.83,36,5.35,0,1597645692
Taltal,CL,-25.4,-70.48,49.62,74,1.54,9,1597645692
Weinan,CN,34.5,109.51,75.2,94,4.47,90,1597645692
Pufeşti,RO,46.0,27.2,70.0,68,6.93,6,1597645693
Porto Recanati,IT,43.44,13.66,79.0,78,3.36,5,1597645693
Biak,ID,-0.91,122.88,82.9,64,10.8,43,1597645693
Aksarka,RU,66.56,67.8,53.96,58,4.16,97,1597645694
Bubaque,GW,11.28,-15.83,78.8,85,16.55,100,1597645694
Puerto Nariño,CO,-3.77,-70.38,75.2,100,0.54,20,1597645694
Genç,TR,38.75,40.56,78.8,36,6.93,0,1597645694
Uttarkāshi,IN,30.73,78.45,84.2,94,3.58,75,1597645694
Araceli,PH,10.55,119.99,85.6,65,1.25,85,1597645695
Dalian,CN,38.91,121.6,87.8,70,11.18,82,1597645695
Asău,RO,46.43,26.4,70.0,75,1.99,34,1597645695
Soyo,AO,-6.13,12.37,75.2,88,9.06,75,1597645695
Kapustin Yar,RU,48.58,45.74,71.78,42,10.07,0,1597645696
Paita,PE,-5.09,-81.11,61.61,85,8.81,22,1597645696
Pasni,PK,25.26,63.47,83.66,80,7.74,100,1597645696
Vanimo,PG,-2.67,141.3,84.63,70,8.25,26,1597645696
Tilichiki,RU,60.47,166.1,61.32,55,14.97,56,1597645696
Tessalit,ML,20.2,1.01,87.24,44,8.97,94,1597645697
Sokoni,TZ,-6.43,39.55,75.2,94,11.63,75,1597645697
Halifax,CA,44.65,-63.57,64.0,74,5.26,100,1597645565
Almeirim,BR,-1.52,-52.58,75.87,87,4.81,40,1597645697
Huarmey,PE,-10.07,-78.15,59.07,85,7.94,66,1597645698
Maceo,CO,6.55,-74.79,66.31,98,3.67,100,1597645698
Golden,US,39.76,-105.22,75.2,29,4.7,1,1597645427
Khipro,PK,25.83,69.38,98.04,47,13.58,60,1597645699
Shar,KZ,49.59,81.05,82.08,17,3.42,19,1597645675
Carbondale,US,37.73,-89.22,66.2,88,3.69,1,1597645699
Freeport,US,40.66,-73.58,66.99,82,9.17,75,1597645657
Horadiz,AZ,39.45,47.34,71.6,64,6.93,75,1597645700
Aksaray,TR,38.37,34.03,62.6,48,3.36,0,1597645651
Ponta Delgada,PT,37.73,-25.67,73.4,88,14.99,20,1597645700
Aksu,CN,41.12,80.26,90.75,14,7.36,0,1597645700
Virginia Beach,US,36.85,-75.98,73.0,99,7.43,44,1597644909
Saýat,TM,38.78,63.88,82.4,28,16.11,75,1597645701
Santa Cruz de la Sierra,BO,-17.8,-63.17,64.4,82,4.7,75,1597645701
Mahajanga,MG,-15.72,46.32,82.4,48,10.29,20,1597645701
Kimbe,PG,-5.55,150.14,86.56,59,6.29,4,1597645701
Oyama,JP,36.3,139.8,100.0,53,8.05,75,1597645701
Inuvik,CA,68.35,-133.72,51.8,87,3.36,90,1597645702
Kuril'sk,RU,45.23,147.88,63.39,83,3.4,75,1597645702
Gravatá,BR,-8.2,-35.56,64.67,97,7.67,20,1597645702
São João da Barra,BR,-21.64,-41.05,72.21,92,9.66,94,1597645702
Prenzlau,DE,53.32,13.87,69.01,79,8.37,4,1597645702
Hofn,IS,64.25,-15.21,53.6,90,4.25,96,1597645703
Verkhoyansk,RU,67.54,133.38,56.34,39,5.23,3,1597645703
Charagua,BO,-19.8,-63.22,56.55,73,2.93,5,1597645703
Carauari,BR,-4.88,-66.9,75.6,78,2.06,45,1597645703
Port Said,EG,31.26,32.28,80.6,69,4.7,0,1597645704
La Asuncion,VE,11.03,-63.86,89.6,66,3.36,80,1597645704
Kibre Mengist,ET,5.88,38.98,64.13,78,3.22,96,1597645704
Bilibino,RU,68.05,166.44,44.17,61,14.67,91,1597645704
Sisimiut,GL,66.94,-53.67,45.64,57,4.27,54,1597645705
Flinders,AU,-34.58,150.86,66.0,50,11.01,0,1597645705
Nagua,DO,19.38,-69.85,77.07,91,2.62,0,1597645705
Huanren,CN,41.26,125.37,82.56,76,7.29,85,1597645705
Staroutkinsk,RU,57.23,59.33,50.47,95,8.93,100,1597645706
Tautira,PF,-17.73,-149.15,75.2,73,2.24,20,1597645706
Yakovlevka,RU,44.42,133.48,83.05,51,5.14,89,1597645706
Honiara,SB,-9.43,159.95,86.0,70,6.93,20,1597645570
Patacamaya,BO,-17.23,-67.92,42.04,61,4.7,33,1597645707
Purpe,RU,64.48,76.69,64.0,78,8.19,95,1597645516
Northam,GB,51.03,-4.22,60.01,95,5.01,70,1597645572
Dunedin,NZ,-45.87,170.5,46.0,83,3.0,28,1597645414
Yenagoa,NG,4.92,6.26,74.21,89,3.44,99,1597645708
Eilat,IL,29.56,34.95,87.8,43,8.05,0,1597645510
Crotone,IT,39.09,17.12,78.8,69,2.24,18,1597645708
Marzuq,YE,14.4,46.47,88.93,30,2.66,13,1597645709
Quryq,KZ,43.2,51.65,75.02,38,8.68,55,1597645709
Alugan,PH,12.22,125.48,86.09,70,4.41,99,1597645709
Iqaluit,CA,63.75,-68.51,41.0,93,3.36,40,1597645709
Artesia,US,33.87,-118.08,73.4,83,3.36,90,1597645709
Oriximiná,BR,-1.77,-55.87,78.04,68,4.14,50,1597645710
Nkayi,CG,-4.18,13.29,74.61,73,4.0,87,1597645710
